{"Bla\u017euj": {"lat": "43.842315", "lng": "18.254834", "address": "BLA\u017dUJ 76, ILID\u017dA, SARAJEVO"}, "Nova Topola": {"lat": "45.052381", "lng": "17.307831", "address": "Banjalu\u010dki put bb"}, "Kotor Varo\u0161": {"lat": "44.622637", "lng": "17.370599", "address": "CARA DU\u0160ANA 84"}, "Baraci": {"lat": "44.320866", "lng": "16.937977", "address": "BARA\u0106I BB,M.GRAD"}, "Balkana": {"lat": "44.419015", "lng": "17.048408", "address": "BRDO BB,M.GRAD"}, "\u010carda\u010dani": {"lat": "44.872041", "lng": "17.332149", "address": "\u010cARDA\u010cANI BB"}, "\u010ca\u0111avica": {"lat": "44.489545", "lng": "16.923317", "address": "\u010cA\u0110AVICA BB,RIBNIK"}, "Petlja": {"lat": "44.821766", "lng": "17.196404", "address": "JOVANA BIJELI\u0106A BB"}, "Srbac": {"lat": "45.096755", "lng": "17.513176", "address": "Danka Mitrova bb"}, "Lakta\u0161i": {"lat": "44.903194", "lng": "17.29847", "address": "MLADENA STOJANOVI\u0106A BB"}, "Bijeljina 1": {"lat": "44.768788", "lng": "19.225582", "address": "Ra\u010danska 92"}, "Bijeljina 2": {"lat": "44.739508", "lng": "19.180843", "address": "Pantelinska bb"}, "Boji\u0107a Han": {"lat": "44.784767", "lng": "17.204405", "address": "MLADENA STOJANOVI\u0106A BB"}, "Janja": {"lat": "44.652869", "lng": "19.242527", "address": "Kara\u0111or\u0111eva bb"}, "Dvorovi": {"lat": "44.814907", "lng": "19.268933", "address": "Kara\u0111or\u0111eva bb"}, "Ugljevik": {"lat": "44.692531", "lng": "19.031705", "address": "Ugljevi\u010dka Obrije\u017e br.20"}, "Lopare": {"lat": "44.631771", "lng": "18.842966", "address": "Cara Du\u0161ana bb"}, "Zvornik": {"lat": "44.371438", "lng": "19.101828", "address": "Divi\u010d &#160;69"}, "Karakaj": {"lat": "44.409277", "lng": "19.12412", "address": "Karakaj &#160;91 a"}, "\u0160ekovi\u0107i": {"lat": "44.291826", "lng": "18.845654", "address": "&#160;Milo\u0161a Zeki\u0107a bb"}, "Bratunac": {"lat": "44.185632", "lng": "19.332315", "address": "Svetog Save bb"}, "Srebrenica": {"lat": "44.116629", "lng": "19.289541", "address": "Mar\u0161ala Tita bb"}, "Vlasenica": {"lat": "44.183461", "lng": "18.946396", "address": "Svetosavska bb"}, "Gacko": {"lat": "43.161633", "lng": "18.542569", "address": "Nemanjina br. 52, Gacko"}, "Mili\u0107i": {"lat": "44.174384", "lng": "19.07561", "address": "Srpskih vladara bb"}, "Brod 1": {"lat": "45.134846", "lng": "17.996191", "address": "Zmaj J. Jovanovi\u0107a, Brod"}, "Brod 2": {"lat": "45.147398", "lng": "18.003667", "address": "Trg Patrijarha Pavla bb"}, "Doboj 1": {"lat": "44.728593", "lng": "18.088819", "address": "Svetog Save bb"}, "Doboj 2": {"lat": "44.727753", "lng": "18.091505", "address": "Svetog Save bb"}, "Dobor": {"lat": "44.9713", "lng": "18.2765", "address": "Dobor bb"}, "Modri\u010da": {"lat": "44.957807", "lng": "18.30811", "address": "Stepe &#160;Stepanovi\u0107a bb"}, "Pelagi\u0107evo": {"lat": "44.91386", "lng": "18.640417", "address": "\u0110UKI\u0106I BB"}, "Petrovo": {"lat": "44.633948", "lng": "18.362347", "address": "Todora Vujasinovi\u0107a br.14"}, "Polje": {"lat": "44.985448", "lng": "17.941826", "address": "Polje bb, DERVENTA"}, "Borik": {"lat": "44.775561", "lng": "17.206755", "address": "Bulevar Srbske Vojske &#160;3"}, "Prnjavor": {"lat": "44.862286", "lng": "17.669804", "address": "Magistralni put 24"}, "Tesli\u0107 1": {"lat": "44.620661", "lng": "17.854182", "address": "Kraji\u0161ka bb &#160;Tesli\u0107"}, "Tesli\u0107 2": {"lat": "44.607583", "lng": "17.850869", "address": "Svetog Save bb,Tesli\u0107"}, "\u0160amac": {"lat": "45.053925", "lng": "18.478658", "address": "Vladimira Nazora 73"}, "Pale": {"lat": "43.814066", "lng": "18.575143", "address": "Srpskih ratnika b.b.&#160;"}, "Ljubogo\u0161ta 1": {"lat": "43.85079", "lng": "18.538614", "address": "Ljubogo\u0161ta b.b.&#160;"}, "Ljubogo\u0161ta 2": {"lat": "43.851092", "lng": "18.538386", "address": "Ljubogo\u0161ta b.b.&#160;"}, "Lukavica": {"lat": "43.825851", "lng": "18.370387", "address": "Nikole tesle br.52"}, "Podromanija": {"lat": "43.91808", "lng": "18.767319", "address": "Podromanija b.b."}, "Rogatica": {"lat": "43.812846", "lng": "18.997463", "address": "Srpske sloge br.185"}, "Nova Varo\u0161": {"lat": "44.77922", "lng": "17.196727", "address": "I krajiskog korpusa 2"}, "Vi\u0161egrad 1": {"lat": "43.789731", "lng": "19.292382", "address": "Ive Andri\u0107a b.b."}, "Rudo": {"lat": "43.611036", "lng": "19.367466", "address": "Magistralni put b.b."}, "\u010cajni\u010de": {"lat": "43.557375", "lng": "19.073298", "address": "Kralja Petra I Oslobodioca b.b."}, "Han Pijesak": {"lat": "44.094532", "lng": "18.95662", "address": "Vikend naselje br.9"}, "Sokolac": {"lat": "43.932621", "lng": "18.790917", "address": "Cara Lazara br.3"}, "Ustipra\u010da": {"lat": "43.691413", "lng": "19.087637", "address": "Ustipra\u010da b.b."}, "Prijedor 1": {"lat": "44.979719", "lng": "16.714964", "address": "VASE MISKINA BB"}, "Kozarska Dubica": {"lat": "45.178908", "lng": "16.80244", "address": "KNINSKA BB"}, "Prijedor 2": {"lat": "44.979176", "lng": "16.720097", "address": "Banjalu\u010dka bb, Prijedor"}, "Novi Grad": {"lat": "45.048762", "lng": "16.385818", "address": "BANJALUCKA BB"}, "Srpske Toplice": {"lat": "44.746573", "lng": "17.155061", "address": "MANJA\u010cKIH USTANIKA 36"}, "Kostajnica": {"lat": "45.221632", "lng": "16.52349", "address": "RANKA \u0160IPKE 2"}, "O\u0161tra Luka": {"lat": "44.851895", "lng": "16.676274", "address": "O\u0160TRA LUKA BB"}, "Kozarac": {"lat": "44.972935", "lng": "16.834951", "address": "KOZARAC BB"}, "Drakseni\u0107": {"lat": "45.207291", "lng": "16.877914", "address": "DRAKSENI\u0106 BB"}, "Nevesinje": {"lat": "43.256243", "lng": "18.116985", "address": "Rada Radovi\u0107a br. 1, Nevesinje"}, "Ljubinje": {"lat": "42.948048", "lng": "18.09414", "address": "Tvrdo\u0161ki put bb, Ljubinje"}, "Fo\u010da 2": {"lat": "43.497547", "lng": "18.767348", "address": "Geteova bb, Fo\u010da"}, "Miljevina": {"lat": "43.51", "lng": "18.644094", "address": "Miljevina bb, Miljevina"}, "Bile\u0107a": {"lat": "42.873076", "lng": "18.424401", "address": "Srpske vojske br. 15, Bile\u0107a"}, "Trebinje 1": {"lat": "42.709961", "lng": "18.346192", "address": "Cvjetni trg bb, Trebinje"}, "Lau\u0161": {"lat": "44.774165", "lng": "17.181917", "address": "KRAJI\u0160KIH BRIGADA 2"}, "Trebinje 2": {"lat": "42.701798", "lng": "18.348586", "address": "Trebinjskih brigada bb, Trebinje"}, "Fo\u010da 1": {"lat": "43.511809", "lng": "18.77906", "address": "Svetosavska bb, Fo\u010da"}, "Jabu\u010dik": {"lat": "44.814064", "lng": "18.552236", "address": "JABU\u010cIK BB"}, "Bugojno": {"lat": "44.108284", "lng": "17.431352", "address": "KOP\u010cI\u0106 BB, BUGOJNO"}, "Tuzla": {"lat": "44.556493", "lng": "18.693714", "address": "Solina BB, Tuzla"}, "Busova\u010da": {"lat": "44.127732", "lng": "17.886227", "address": "KAONIK BB"}, "Cerovac": {"lat": "44.638782", "lng": "17.973634", "address": "CEROVAC BB, TE\u0160ANJ"}, "\u0160uica": {"lat": "43.839405", "lng": "17.174661", "address": "\u0160UJICA BB"}, "Brijesnica": {"lat": "44.72436", "lng": "18.201796", "address": "BRIJESNICA VELIKA BB"}, "Tinja": {"lat": "44.629198", "lng": "18.560672", "address": "TINJA BB, SREBRENIK"}, "Bud\u017eak": {"lat": "44.811729", "lng": "17.21171", "address": "Branka Popovi\u0107a bb"}, "Ormanica": {"lat": "44.784175", "lng": "18.515896", "address": "ORMANICA BB"}, "Mostar": {"lat": "43.39385", "lng": "17.86903", "address": "Vrap\u010di\u0107i BB"}, "Gradi\u0161ka": {"lat": "45.143649", "lng": "17.255218", "address": "Vuka S.K. 2"}, "Ivanjska": {"lat": "44.909097800000005", "lng": "17.022553700000003", "address": "IVANJSKA BB"}, "Kozarska Dubica 2": {"lat": "45.1766639", "lng": "16.7949789", "address": "Kralja Petra I Oslobodioca b.b."}, "Bijeljina 4": {"lat": "44.761383500000008", "lng": "19.206094399999984", "address": "Sremska 6A"}, "Vogo\u0161\u0107a": {"lat": "43.9295946", "lng": "18.3317267", "address": "Nova cesta do 65"}, "Te\u0161anj": {"lat": "44.6336947", "lng": "17.9756766", "address": "Cerovac b.b."}, "Zalu\u017eani": {"lat": "44.828841", "lng": "17.209831", "address": "Jovana Bijeli\u0107a bb"}}